,base,medical_resource,province,region,departure_location,departure_location_number,latitude,longitude,occasional_permanence
0,BA ANTW [Borgerhout] AMBUCE,ZW ANTWERPEN 7 (Team: AAANTW07A),Antwerpen,Vlaams Gewest,Gijselstraat 150 2140 BORGERHOUT,3811,51.2155158,4.4437875,N
1,BA ANTW [Hoboken] AMBUCE,ZW ANTWERPEN 9 (Team: AAANTW09A),Antwerpen,Vlaams Gewest,Antwerpsesteenweg 242 2660 HOBOKEN,3812,51.1788314,4.3619482,N
2,BA ANTW [Hof Ter Schelde] AC Antwerpen,ZW ANTWERPEN 3 (Team: AAANTW03A),Antwerpen,Vlaams Gewest,August Vermeylenlaan 6 2050 ANTWERPEN,10902,51.2328096,4.377237,N
3,BA ANTW [Kaai 606] SIHWA,ZW ANTWERPEN HAVEN 1 (Team: AAAPOR01A)_x000D_ZW ANTWERPEN HAVEN 2 (Team: AAAPOR02A),Antwerpen,Vlaams Gewest,Antwerpsebaan 4 (Kaai 606) 2040 ANTWERPEN,12902,51.3155156,4.3215063,N
4,BA ANTW [Sint Elisabeth] AC Antwerpen,ZW ANTWERPEN 2 (Team: AAANTW02A),Antwerpen,Vlaams Gewest,Leopoldstraat 26 2000 ANTWERPEN,10901,51.2136226,4.4057177,N
5,BA AREN Gemeente Arendonk,ZW ARENDONK 1 (Team: AAAREN01A),Antwerpen,Vlaams Gewest,Hovestraat 46 2370 ARENDONK,12101,51.319819,5.089912,N
6,BA BEER AD BEERSE,ZW BEERSE 1 (Team: AABEER01A),Antwerpen,Vlaams Gewest,IJzerstraat 3 2340 BEERSE,14701,51.3209834,4.8566561,N
7,BA BERL Rode Kruis,ZW BERLAAR 1 (Team: AABERL01A),Antwerpen,Vlaams Gewest,Zomerstraat 26 2590 BERLAAR,3511,51.1140555,4.6472462,N
8,BA ESSE Gemeente Essen,ZW ESSEN 1 (Team: AAESSE01A),Antwerpen,Vlaams Gewest,Heuvelplein 23 2910 ESSEN,16403,51.4646726,4.4725507,N
9,BA HERS Hulshoutse AD,ZW HULSHOUT 1 (Team: AAHERS01A),Antwerpen,Vlaams Gewest,Harmoniestraat 9A 2230 RAMSEL,16803,51.0430641,4.815907,N
10,BA KAPE AMBUCE,ZW KAPELLEN (Team: AAKAPE01A),Antwerpen,Vlaams Gewest,Essenhoutstraat 77 2950 KAPELLEN,3813,51.3120142,4.4243382,N
11,BA KONT ACL ACK,ZW KONTICH 1 (Team: AAKONT01A)_x000D_ZW KONTICH 2 COLLOCATIES (Team: AAKONT02A),Antwerpen,Vlaams Gewest,Duffelsesteenweg 100 2550 KONTICH,11101,51.1276472,4.4539147,N
12,BA RAVE Vlaams Kruis,ZW RAVELS 1 (Team: AARAVE01A),Antwerpen,Vlaams Gewest,Dreef 21 2381 WEELDE,4012,51.4095824,4.9965793,N
13,BA WIJN AMBUCE,ZW WIJNEGEM 1 (Team: AAWIJN01A),Antwerpen,Vlaams Gewest,Bijkhoevelaan 8 2110 WIJNEGEM,3810,51.2333921,4.4929328,N
14,BA ZAND Vlaams Kruis,ZW COVID Zandhoven (Team: AAZAND02A)_x000D_ZW ZANDHOVEN 1 (Team: AAZAND01A),Antwerpen,Vlaams Gewest,Populierenhoeve 20 2243 ZANDHOVEN,4011,51.2055292,4.6456563,N
15,BB BRUX Hôpital Militair KA,AMB COVID HM (Team: ABBRUX22A)_x000D_AMB HMB 13 (Team: ABBRUX13A),,Brussels Hoofdstedelijk Gewest,Rue Bruyn 1 1120 NEDER-OVER-HEEMBEEK,3921,50.9072587,4.3923288,N
16,BB FORE Croix Rouge,AMB FOREST (Team: ABFORE01A),,Brussels Hoofdstedelijk Gewest,Rue Marconi 144 1190 FOREST,3423,50.8155259,4.3416631,N
17,BF HULP ACS La Hulpe,AMB Bariatrique LA HULPE 5 (Team: AFHULP05A)_x000D_AMB LA HULPE 1 (Team: AFHULP01A)_x000D_AMB LA HULPE 2 (Team: AFHULP02A)_x000D_AMB LA HULPE 3 (Team: AFHULP03A)_x000D_AMB LA HULPE 4 (Team: AFHULP04A),Waals-Brabant,Waals Gewest,Rue E. Soyer 7 1310 LA HULPE,23601,50.7305766,4.4948658,N
18,BF OTTI Croix Rouge,AMB CÉROUX (Team: AFOTTI01A),Waals-Brabant,Waals Gewest,Rue De Franquenies 10 1341 OTTIGNIES,3621,50.6601956,4.5671377,N
19,BG AMAY Croix Rouge,CR.AMPSIN (Team: AGAMAY01A),Luik,Waals Gewest,"Rue du Chénia, 17 4540 AMPSIN",3667,50.5407363,5.2847964,N
20,BG AWAN PARAM,PR.PARAMEDICAL TEAM1 (Team: AGAWAN01A)_x000D_PR.PARAMEDICAL TEAM2 (Team: AGAWAN02A),Luik,Waals Gewest,Rue de Bruxelles 13 4342 AWANS,60202,50.6797955,5.4715356,N
21,BG BLEG Croix Rouge,CR BELGIQUE BARCHON (Team: AGBLEG01A),Luik,Waals Gewest,Rue Près Champs 25A 4672 Barchon,3668,50.6635369,5.6889139,N
22,BG LIEG Croix Rouge,CR LIEGE 4 (Team: AGLIEG04A)_x000D_CR LIEGE 5 (Team: AGLIEG05A),Luik,Waals Gewest,Rue Darchis 6 4000 LIEGE,3461,50.6372979,5.5669785,N
23,BG OUPE Croix Rouge,AMB COVID Oupeye (Team: AGOUPE02A)_x000D_CR.OUPEYE (Team: AGOUPE01A),Luik,Waals Gewest,Rue Du Roi Albert 50 4680 OUPEYE,3663,50.705059,5.6491165,N
24,BG SERA Croix Rouge,CR.OUGREE (Team: AGSERA01A),Luik,Waals Gewest,Avenue Du Centenaire 81 4102 OUGREE,3665,50.5894263,5.5428587,N
25,BH CHAR CSA Poste Gilly,SAPG 2 (Team: AHCHAR12A),Henegouwen,Waals Gewest,Rue Horace Pierard 17 6060 GILLY,50202,50.4179964,4.4745926,N
26,BH CHAR R-MED,AMB R-MED 5 (Team: AHCHAR05A)_x000D_AMB R-MED 6 (Team: AHCHAR06A),Henegouwen,Waals Gewest,Rue De Goutroux 81 6031 MONCEAU SUR SAMBRE,51301,50.412614,4.3768883,N
27,BH LOUV AS Grande,AMB STREPY 3 (Team: AHLOUV03A),Henegouwen,Waals Gewest,Rue de Nivelle 48 7110 STREPY,50301,50.4698175,4.1279295,N
28,BH MONS [Ghlin] Croix Rouge,AMB GHLIN (Team: AHMONS07A),Henegouwen,Waals Gewest,Chemin Bouteillier 1 7011 GHLIN,3652,50.4910226,3.9336411,N
29,BH SGHI Croix Rouge,AMB SAINT-GHISLAIN (Team: AHSGHI01A),Henegouwen,Waals Gewest,Rue Louis Caty 136 7331 BAUDOUR,3651,50.47713,3.8404351,N
30,BL BERI [Paal] Medicare,ZW PAAL Collocaties (Team: ALBERI01A),Limburg,Vlaams Gewest,St-Jansstraat 57 3583 PAAL,70301,51.0371352,5.1781604,N
31,BL BORG Ambi Care,ZW BORGLOON (Team: ALBORG01A),Limburg,Vlaams Gewest,Lambertusstraat 28 A 3840 BORGLOON,74102,50.8019177,5.3319635,N
32,BL LANA Ambi Care,ZW LANAKEN (Team: ALLANA01A),Limburg,Vlaams Gewest,Kiezelweg 43 3620 LANAKEN,74301,50.8763364,5.6277626,N
33,BL PEER AMBUCE,ZW PEER (Team: ALPEER01A),Limburg,Vlaams Gewest,Burgemeester Dupontplein 1 Bus 1 3990 PEER,3870,51.132399,5.4425231,N
34,BN NAMU Croix Rouge,CR NAMUR 4 (Team: ANNAMU04A),Namen,Waals Gewest,Rue De L'Industrie 124 5002 NAMUR / SAINT SERVAIS,3491,50.4760028,4.8473646,N
35,BO BRAK Vita,ZW BRAKEL (Team: AOBRAK01A),Oost-Vlaanderen,Vlaams Gewest,Geraardsbergsestraat 7 9660 BRAKEL,45901,50.797913,3.7598829,N
36,BO GAVE [Asper] Snoeck,ZW GAVERE (Team: AOGAVE01A),Oost-Vlaanderen,Vlaams Gewest,Pontweg 128 9890 ASPER,45401,50.9304366,3.6447316,N
37,BO GENT [Gentbrugge] Life Care,ZW GENT 4 (Team: AOGENT04A)_x000D_ZW GENT 5 (Team: AOGENT05A),Oost-Vlaanderen,Vlaams Gewest,Steenvoordelaan 56 9050 GENTBRUGGE,45801,51.0356587,3.7553518,N
38,BO HAMM EVA,ZW HAMME (Team: AOHAMM01A),Oost-Vlaanderen,Vlaams Gewest,Kazernestraat 2 9220 HAMME,42101,51.0926251,4.1319059,N
39,BO LOCH 112 Lochristi,ZW LOCHRISTI 1 (Team: AOLOCH01A)_x000D_ZW LOCHRISTI 2 (Team: AOLOCH02A),Oost-Vlaanderen,Vlaams Gewest,Koning Albertlaan 21 9080 LOCHRISTI,40201,51.0977887,3.8304982,N
40,BO MERE WZC Lemberge,PIT MERELBEKE (Team: POMERE01A),Oost-Vlaanderen,Vlaams Gewest,Salisburylaan 100 9820 MERELBEKE,40011,50.9981308,3.7699959,N
41,BV AARS 112 Hageland,ZW AARSCHOT (Team: AVAARS01A),Vlaams-Brabant,Vlaams Gewest,Boudewijnlaan 4 3200 AARSCHOT,25404,50.98233,4.8234189,N
42,BV HALL Rode Kruis,ZW HALLE RK 1 (Team: AVHALL01A),Vlaams-Brabant,Vlaams Gewest,Brusselsesteenweg 183 1500 HALLE,3522,50.7434628,4.2404099,N
43,BV LEUV 112 Hageland,ZW HEVERLEE 2 (Team: AVLEUV02A),Vlaams-Brabant,Vlaams Gewest,Korbeek-Losestraat 117 3001 LEUVEN,25403,50.8696549,4.7243436,N
44,BV LEUV Rode Kruis,ZW LEUVEN RK 1 (Team: AVLEUV01B),Vlaams-Brabant,Vlaams Gewest,Onze Lieve Vrouwstraat 44 3000 LEUVEN,3521,50.8785355,4.6953981,N
45,BV LIED AMBUCE,ZW LIEDEKERKE (Team: AVLIED01A),Vlaams-Brabant,Vlaams Gewest,Kapellenbaan 30 1770 LIEDEKERKE,3820,50.8680038,4.0983199,N
46,BV TIEL 112 Hageland,ZW TIELT-WINGE (Team: AVTIEL01A),Vlaams-Brabant,Vlaams Gewest,Glabbeeksesteenweg 35 3390 TIELT WINGE,25402,50.9061581,4.8857039,N
47,BV ZAVE Brussels Airport Company,ZW AIRPORT (Team: AVZAIR01A),Vlaams-Brabant,Vlaams Gewest,Hulpppost Noord 1930 ZAVENTEM AIRPORT,26401,50.8798215,4.4727595,N
48,BW AVEL [OU] 112 Avelgem,ZW AVELGEM 1 (Team: AWAVEL01A)_x000D_ZW AVELGEM 2 (Team: AWAVEL02A),West-Vlaanderen,Vlaams Gewest,Oudenaardsesteenweg 76 8580 AVELGEM,30202,50.7786794,3.4490966,N
49,BW TIEL Rode Kruis,PIT TIELT (Team: AWTIEL01A),West-Vlaanderen,Vlaams Gewest,Bruggestraat 84 8700 TIELT,3531,51.0023637,3.3234085,N
50,BX LIBR Croix Rouge,CR BELGIQUE LIBRAMONT (Team: AXLIBR02A),Luxemburg,Waals Gewest,Rue Fleurie 19 A 6800 LIBRAMONT,3682,49.9279133,5.3682538,N
51,FA HVP ANTW [Zuid] Antwerpen,ZW ANTWERPEN 1 (Team: AAANTW01A),Antwerpen,Vlaams Gewest,Paleisstraat 121 2018 ANTWERPEN,3814,51.2053995,4.3971557,N
52,FA HVP BALE Kempen,ZW BALEN 1 (Team: AABALE01A),Antwerpen,Vlaams Gewest,Vredelaan 2 2490 BALEN,16002,51.1709534,5.1755429,N
53,FA HVP BOOM Rivierenland,ZW BOOM 1 (Team: AABOOM01A),Antwerpen,Vlaams Gewest,Dijleweg 5 2850 BOOM,17002,51.0960533,4.3547325,N
54,FA HVP HEIS Rivierenland,ZW HEIST OP DEN BERG 1 (Team: AAHEIS01A)_x000D_ZW HEIST OP DEN BERG 2 (Team: AAHEIS02A),Antwerpen,Vlaams Gewest,Broekstraat 46A 2220 HEIST OP DEN BERG,17001,51.0838438,4.7363928,N
55,FA HVP HERA Kempen,ZW HERENTALS 1 (Team: AAHERA01A),Antwerpen,Vlaams Gewest,Oudstrijderslaan 1 2200 HERENTALS,16005,51.1873563,4.8403769,N
56,FA HVP HOOG Taxandria,ZW HOOGSTRATEN 1 (Team: AAHOOG01A)_x000D_ZW HOOGSTRATEN 2 (Team: AAHOOG02A),Antwerpen,Vlaams Gewest,St Lenaertseweg 38 2320 HOOGSTRATEN,15002,51.3880749,4.7422763,N
57,FA HVP KALM Rand,ZW KALMTHOUT (Team: AAKALM01A),Antwerpen,Vlaams Gewest,Kerkeneind 17 2920 KALMTHOUT,13501,51.383289,4.478244,N
58,FA HVP MALL [Oostmalle] Rand,ZW OOSTMALLE 2/ ZW WESTMALLE 2 (Team: AAMALL02A),Antwerpen,Vlaams Gewest,Turnhoutsebaan 8 2390 MALLE,14003,51.301117,4.734865,N
59,FA HVP MOL_ Kempen,ZW MOL 1 (Team: AAMOL_01A),Antwerpen,Vlaams Gewest,Ambachtstraat 18 2400 MOL,16004,51.1889959,5.0948491,N
60,FA HVP PUUR [Puurs] Rivierenland,ZW PUURS (Team: AAPUUR01A),Antwerpen,Vlaams Gewest,Kleine Amer 22 2870 PUURS,17006,51.0773485,4.2973462,N
61,FA HVP TURN Taxandria,ZW TURNHOUT 1 (Team: AATURN01A)_x000D_ZW TURNHOUT 2 (Team: AATURN02A)_x000D_ZW TURNHOUT 3 (Team: AATURN03A),Antwerpen,Vlaams Gewest,Parklaan 12 2300 TURNHOUT,15003,51.3120757,4.9314228,N
62,FA HVP WEST Kempen,ZW WESTERLO 1 (Team: AAWEST01A),Antwerpen,Vlaams Gewest,De Merodedreef 13 2260 WESTERLO,16001,51.0825171,4.91256,N
63,FA HVP WILL Rivierenland,ZW WILLEBROEK 1 (Team: AAWILL01A),Antwerpen,Vlaams Gewest,De Veert 9 - 10 2830 WILLEBROEK,17003,51.0668189,4.3598043,N
64,FA HVP WUUS Rand,ZW WUUSTWEZEL 1 (Team: AAWUUS01A),Antwerpen,Vlaams Gewest,Alois Blommaertstraat 3 2990 WUUSTWEZEL,14004,51.3948812,4.5998185,N
65,FB PDS ANDE [PASI Anderlecht] SIAMU,AMB AND 1 (Team: ABANDE01A)_x000D_AMB AND 2 (Team: ABANDE02A)_x000D_AMB AND 3 (Team: ABANDE03A)_x000D_AMB AND 4 (Team: ABANDE04A),,Brussels Hoofdstedelijk Gewest,Chaussée De Mons 627 1070 ANDERLECHT,24107,50.8324872,4.3115682,N
66,FB PDS BRUX [PASI Cité] SIAMU,AMB CITE 10 (Team: ABBRUX10A)_x000D_AMB CITE 11 (Team: ABBRUX11A),,Brussels Hoofdstedelijk Gewest,Rue Vésale 1000 BRUXELLES,24113,50.8508852,4.3643289,N
67,FB PDS IXEL [PASI Delta] SIAMU,AMB DELTA 1 (Team: ABIXEL01A)_x000D_AMB DELTA 2 (Team: ABIXEL02A)_x000D_AMB DELTA 3 (Team: ABIXEL03A),,Brussels Hoofdstedelijk Gewest,Boulevard Du Triomphe 155 1050 IXELLES,24104,50.818885,4.40286,N
68,FB PDS SCHA [PASI Paul Brien] SIAMU,AMB BRIEN 1 (Team: ABSCHA01A)_x000D_AMB BRIEN 2 (Team: ABSCHA02A)_x000D_AMB BRIEN 3 (Team: ABSCHA03A),,Brussels Hoofdstedelijk Gewest,Avenue Brietsiers 11B 1030 SCHAERBEECK,24110,50.8674778,4.3773347,N
69,FB PDS UCCL [PASI Chênai] SIAMU,AMB CHENAIE (Team: ABUCCL01A),,Brussels Hoofdstedelijk Gewest,Avenue De La Chênaie 161C 1180 UCCLE,24108,50.7832343,4.3559251,N
70,FF PDS NIVE Brabant Wallon,AMB NIVELLES 1 (Team: AFNIVE01A)_x000D_AMB NIVELLES 2 (Team: AFNIVE02A),Waals-Brabant,Waals Gewest,Chaussee De Charleroi 46C 1400 NIVELLES,20001,50.5813404,4.3389817,N
71,FG PDS ANS_ Liège IILE,ZS ANS (Team: AGANS_01A),Luik,Waals Gewest,Rue Jean Jaurès 4000 ANS,61002,50.6550814,5.5293122,N
72,FG PDS EUPE DG,ZS.EUPEN 1 (Team: AGEUPE01A)_x000D_ZS.EUPEN 2 (Team: AGEUPE02A),Luik,Waals Gewest,Kehrweg 9D 4700 EUPEN,66002,50.6266486,6.0434467,N
73,FG PDS FLEM Liège IILE,ZS FLEMALLE 1 (Team: AGFLEM01A),Luik,Waals Gewest,Grand'Route 269 4400 FLEMALLE,61003,50.5995332,5.4720475,N
74,FG PDS HANN Hesbaye,ZS.HANNUT 1 (Team: AGHANN01A)_x000D_ZS.HANNUT 2 (Team: AGHANN02A)_x000D_ZS.HANNUT 3 (Team: AGHANN03A),Luik,Waals Gewest,Rue Joseph Wauters 65 4280 HANNUT,60001,50.673831,5.091516,N
75,FG PDS HERV [Battice] Vesdre Hoëgne Plateau,ZS.BATTICE 1 (Team: AGHERV01A),Luik,Waals Gewest,Rue de Chesseroux 4650 HERVE,64002,50.64775,5.80788,N
76,FG PDS KELM DG,ZS.KELMIS 1 (Team: AGCALA01B),Luik,Waals Gewest,Altenbergstrasse 108 4728 KELMIS,66003,50.7163786,6.0118139,N
77,FG PDS LIEG [Caserne] Liège IILE,ZS LIEGE 6 (Team: AGLIEG06A),Luik,Waals Gewest,Rue Ransonnet 5 4020 LIEGE,61001,50.6445312,5.5869718,N
78,FG PDS PEPI Vesdre Hoëgne Plateau,ZS.PEPINST (Team: AGPEPI01A),Luik,Waals Gewest,Rue Jean Simon 7 4860 PEPINSTER,64005,50.5660359,5.8028664,N
79,FG PDS SPA_ Vesdre Hoëgne Plateau,AMB SPA (Team: AGSPA_01A),Luik,Waals Gewest,Rue Brixhe 1 4900 SPA,64004,50.4937308,5.8667947,N
80,FG PDS SVIT DG,ZS.STVITH 1 (Team: AGSVIT01A),Luik,Waals Gewest,Alte Aachenerstrasse 23 4780 SAINT-VITH,66001,50.2855367,6.126939,N
81,FG PDS WARE Hesbaye,ZS.WAREM 1 (Team: AGWARE01A)_x000D_ZS.WAREM 2 (Team: AGWARE02A),Luik,Waals Gewest,Rue Ernest Malvoz 30 4300 WAREMME,60002,50.6942287,5.2573006,N
82,FG PDS WELK Vesdre Hoëgne Plateau,ZS.WELKENR (Team: AGWELK01A),Luik,Waals Gewest,Rue Mitoyenne 229 4840 WELKENRAEDT,64003,50.6638599,5.9771342,N
83,FH PDS ATH_ Wallonie Picarde,AMB ATH 1 (Team: AHATH_01A)_x000D_AMB ATH 2 (Team: AHATH_02A),Henegouwen,Waals Gewest,Chemin de Bilhée 112 7804 REBAIX,51011,50.6591239,3.7931957,N
84,FH PDS BEAU Hainaut Est,AMB BEAUMONT 1 (Team: AHBEAU01A)_x000D_AMB BEAUMONT 2 (Team: AHBEAU02A),Henegouwen,Waals Gewest,Chaussee  De Mons 17 6500 BEAUMONT,52005,50.2407481,4.2349556,N
85,FH PDS BELO Wallonie Picarde,AMB BELOEIL (Team: AHBELO01A),Henegouwen,Waals Gewest,Rue De La Forgette 2 7970 BELOEIL,51005,50.5502097,3.7376916,N
86,FH PDS BERN Wallonie Picarde,AMB BLATON (Team: AHBERN01A)_x000D_AMB BLATON (Team: AHBERN02A),Henegouwen,Waals Gewest,Avenue de l'Europe 1 7321 BLATON,51013,50.5174431,3.6814769,N
87,FH PDS BINC Hainaut Centre,AMB BINCHE (Team: AHBINC01A),Henegouwen,Waals Gewest,Rue de la Pépinière 57 7130 BINCHE,53010,50.4153824,4.1638782,N
88,FH PDS BRAI Hainaut Centre,AMB BRAINE-LE-COMTE (Team: AHBRAI01A),Henegouwen,Waals Gewest,Rue Des Etats-Unis 9 7090 BRAINE-LE-COMTE,53001,50.6068183,4.135878,N
89,FH PDS CHAR [Jumet] Hainaut Est,AMB JUMET 4 (Team: AHCHAR04A)_x000D_ZS JUMET 1 (Team: AHCHAR13A),Henegouwen,Waals Gewest,1ère Rue Zoning Industriel 6040 JUMET,52002,50.45531,4.45141,N
90,FH PDS CHIM Hainaut Est,AMB CHIMAY 1 (Team: AHCHIM01A)_x000D_AMB CHIMAY 2 (Team: AHCHIM02A),Henegouwen,Waals Gewest,Chaussee De Mons 37A 6460 CHIMAY,52003,50.0554401,4.3070437,N
91,FH PDS COMI Wallonie Picarde,AMB COMINES (Team: AHCOMI01A),Henegouwen,Waals Gewest,Chaussée d'Ypres 55 7784 WARNETON,51002,50.7590067,2.9426115,N
92,FH PDS DOUR Hainaut Centre,AMB DOUR (Team: AHDOUR01A),Henegouwen,Waals Gewest,Rue Victor Regnart 10 7370 DOUR,53006,50.3921289,3.7748325,N
93,FH PDS ENGH Hainaut Centre,AMB ENGHIEN (Team: AHENGH01A),Henegouwen,Waals Gewest,Rempart St Christophe 37 7850 ENGHIEN,53004,50.6946554,4.0327946,N
94,FH PDS ESTA Wallonie Picarde,ZS EVERGNIES 1 (Team: AHESTA01A)_x000D_ZS EVERGNIES 2 (Team: AHESTA02A),Henegouwen,Waals Gewest,Rue de la Couronne 69 7730 EVREGNIES,51012,50.7146464,3.2721489,N
95,FH PDS LEUZ Wallonie Picarde,AMB LEUZE (Team: AHLEUZ01A),Henegouwen,Waals Gewest,Tour St Pierre 13 7900 LEUZE,51001,50.6013804,3.6223468,N
96,FH PDS LOUV Hainaut Centre,AMB LA LOUVIERE 1 (Team: AHLOUV01A)_x000D_AMB LA LOUVIERE 2 (Team: AHLOUV02A),Henegouwen,Waals Gewest,Bld Roi Baudoin 1 7100 LA LOUVIERE,53005,50.4669821,4.1932998,N
97,FH PDS MONS [Cuesmes] Hainaut Centre,AMB COVID Mons 2 (Team: AHMONS05A)_x000D_AMB MONS 1 (Team: AHMONS01A)_x000D_ZS MONS 2 (Team: AHMONS02A)_x000D_ZS MONS 3 (Team: AHMONS03A),Henegouwen,Waals Gewest,Rue Des Sandrinettes 29 7033 CUESMES,53008,50.4459734,3.9178949,N
98,FH PDS MOUS Wallonie Picarde,AMB MOUSCRON 3 (Team: AHMOUS03A),Henegouwen,Waals Gewest,Avenue Du Barry 9 7700 MOUSCRON,51010,50.7350546,3.2188905,N
99,FH PDS QUIE Hainaut Centre,AMB QUIEVRAIN (Team: AHQUIE01A),Henegouwen,Waals Gewest,Place Du Ballodrome 7380 QUIEVRAIN,53007,50.4053612,3.6846471,N
100,FH PDS SOIG Hainaut Centre,AMB SOIGNIES (Team: AHSOIG01A),Henegouwen,Waals Gewest,Rue De La Senne 72 7060 SOIGNIES,53003,50.5829921,4.0684567,N
101,FH PDS THUI Hainaut Est,AMB THUIN 1 (Team: AHTHUI01A)_x000D_AMB THUIN 2 (Team: AHTHUI02A),Henegouwen,Waals Gewest,Route De Biesme 16 6530 THUIN,52004,50.3330712,4.3004128,N
102,FH PDS TOUR Wallonie Picarde,AMB TOURNAI 1 (Team: AHTOUR01A)_x000D_AMB TOURNAI 2 (Team: AHTOUR02A)_x000D_AMB TOURNAI 3 (Team: AHTOUR03A),Henegouwen,Waals Gewest,Avenue De Maire 89 7500 TOURNAI,51004,50.6189572,3.3721125,N
103,FL HVP BILZ Oost Limburg,ZW BILZEN (Team: ALBILZ01A),Limburg,Vlaams Gewest,Begijnhof 22 3740 BILZEN,71003,50.869813,5.5199703,N
104,FL HVP BREE Noord Limburg,ZW BREE 1 (Team: ALBREE01A)_x000D_ZW BREE 2 (Team: ALBREE02A),Limburg,Vlaams Gewest,Bocholterstraat 15 3960 BREE,70002,51.1461236,5.5976703,N
105,FL HVP GENK Oost Limburg,ZW GENK 1 (Team: ALGENK01A)_x000D_ZW GENK 2 (Team: ALGENK02A),Limburg,Vlaams Gewest,C-Mine 50 3600 GENK,71001,50.983825,5.489918,N
106,FL HVP HASS Zuidwest,ZW HASSELT 1 (Team: ALHASS01A)_x000D_ZW HASSELT 2 (Team: ALHASS02A),Limburg,Vlaams Gewest,Zwarte brugstraat 1b 3500 HASSELT,73001,50.9441474,5.3295688,N
107,FL HVP HERK Zuidwest,ZW HERK-DE-STAD (Team: ALHERK01A),Limburg,Vlaams Gewest,Industrieweg 1096 3540 HERK-DE-STAD,73002,50.9452535,5.1716121,N
108,FL HVP HEUS Zuidwest,ZW HEUSDEN-ZOLDER 1 (Team: ALHEUS01A)_x000D_ZW HEUSDEN-ZOLDER 2 (Team: ALHEUS02A),Limburg,Vlaams Gewest,Koerselsebaan 59 3550 HEUSDEN-ZOLDER,73003,51.0372714,5.2809654,N
109,FL HVP LEOP Noord Limburg,ZW LEOPOLDSBURG (Team: ALLEOP01A),Limburg,Vlaams Gewest,Koningin M.L. Laan  145 3970 LEOPOLDSBURG,70003,51.1162188,5.2585985,N
110,FL HVP LOMM Noord Limburg,ZW LOMMEL 1 (Team: ALLOMM01A)_x000D_ZW LOMMEL 2 (Team: ALLOMM02A),Limburg,Vlaams Gewest,Norbert Neeckxlaan 52 3920 LOMMEL,70001,51.2260021,5.3247625,N
111,FL HVP MAAM Oost Limburg,ZW MAASMECHELEN (Team: ALMAAM01A),Limburg,Vlaams Gewest,Rijksweg 155 3630 MAASMECHELEN,71004,50.9843097,5.7139894,N
112,FL HVP OUDS Oost Limburg,ZW OUDSBERGEN (Team: ALOUDS01A),Limburg,Vlaams Gewest,Nijverheidslaan 1544 3660 OUDSBERGEN,71005,51.0424096,5.5479736,N
113,FL HVP TESS Zuidwest,ZW TESSENDERLO (Team: PLTESS01A),Limburg,Vlaams Gewest,Heilig Hartlaan 30 3980 TESSENDERLO,73004,51.0552828,5.0923545,N
114,FL HVP TONG Zuidwest,ZW TONGEREN (Team: ALTONG01A),Limburg,Vlaams Gewest,Sint-Maternuswal 10 3700 TONGEREN,73006,50.7837417,5.4633336,N
115,FN PDS ANDE NAGE,ZS ANDENNE 1 (Team: ANANDE01A)_x000D_ZS ANDENNE 2 (Team: ANANDE02A),Namen,Waals Gewest,Av Reine Elisabeth 150 5300 ANDENNE,90004,50.4917028,5.0878434,N
116,FN PDS BEAU DINAPHI,ZS BEAURAING 1 (Team: ANBEAU01A)_x000D_ZS BEAURAING 2 (Team: ANBEAU02A),Namen,Waals Gewest,Rue de Rochefort 221 5570 BEAURAING,92008,50.1211937,4.9784988,N
117,FN PDS CERF DINAPHI,ZS CERFONTAINE (Team: ANCERF01A),Namen,Waals Gewest,Rue de La Gare 10B 5630 CERFONTAINE,92010,50.1713921,4.4098505,N
118,FN PDS CINE DINAPHI,ZS CINEY (Team: ANCINE01A),Namen,Waals Gewest,Rue du marché couvert 20 5590 CINEY,92005,50.3122838,5.1215478,N
119,FN PDS COUV DINAPHI,ZS COUVIN 1 (Team: ANCOUV01A)_x000D_ZS COUVIN 2 (Team: ANCOUV02A),Namen,Waals Gewest,Route Charlemagne 15 5660 COUVIN,92009,50.0614965,4.4957453,N
120,FN PDS EGHE NAGE,ZS EGHEZEE 1 (Team: ANEGHE01A)_x000D_ZS EGHEZEE 2 (Team: ANEGHE02A),Namen,Waals Gewest,Chaussee de Namur 28 5310 EGHEZEE,90002,50.5898735,4.9119599,N
121,FN PDS FLON DINAPHI,ZS FLORENNES (Team: ANFLON01A),Namen,Waals Gewest,Rue du Viveroux 2A 5620 FLORENNES,92001,50.2561788,4.6079581,N
122,FN PDS FOSS Val Sambre,ZS FOSSES (Team: ANFOSS01A),Namen,Waals Gewest,Rue Sainte-Brigide 15 5070 FOSSES-LA-VILLE,93001,50.3979352,4.6974648,N
123,FN PDS GEDI DINAPHI,ZS GEDINNE (Team: ANGEDI01A),Namen,Waals Gewest,Rue de La Morie 5 5575 GEDINNE,92004,49.9825317,4.9345576,N
124,FN PDS GEMB NAGE,ZS GEMBLOUX 1 (Team: ANGEMB01A)_x000D_ZS GEMBLOUX 2 (Team: ANGEMB02A),Namen,Waals Gewest,Rue Du Stordoir 50 5030 SAUVENIERE,90003,50.5811721,4.714952,N
125,FN PDS METT Val Sambre,ZS METTET 1 (Team: ANMETT01A)_x000D_ZS METTET 2 (Team: ANMETT02A),Namen,Waals Gewest,Rue Saint Donat 23 5640 METTET,93003,50.3038227,4.6459021,N
126,FN PDS NAMU NAGE,ZS COVID NAMUR (Team: ANNAMU05A)_x000D_ZS NAMUR 1 (Team: ANNAMU01A)_x000D_ZS NAMUR 2 (Team: ANNAMU02A)_x000D_ZS NAMUR 4 (Team: ANNAMU03A),Namen,Waals Gewest,Chaussée de Liège 55 5100 JAMBES,90001,50.456608,4.8798386,N
127,FN PDS PHIL DINAPHI,ZS PHILIPEVILLE (Team: ANPHIL01A),Namen,Waals Gewest,Rue de La Gendarmerie 30 5600 PHILIPPEVILLE,92002,50.199119,4.5535744,N
128,FN PDS ROCH DINAPHI,ZS ROCHEFORT 1 (Team: ANROCH01A)_x000D_ZS ROCHEFORT 2 (Team: ANROCH02A),Namen,Waals Gewest,Rue Sous Le Château 1A 5580 ROCHEFORT,92003,50.1559024,5.2172992,N
129,FN PDS SAMB Val Sambre,AMB COVID Sambreville (Team: ANSAMB03A)_x000D_ZS SAMBREVILLE 1 (Team: ANSAMB01A)_x000D_ZS SAMBREVILLE 2 (Team: ANSAMB02A),Namen,Waals Gewest,Rue de la Vacherie 78 5060 SAMBREVILLE,93002,50.4432325,4.646846,N
130,FN PDS VRES DINAPHI,ZS VRESSE (Team: ANVRES01A),Namen,Waals Gewest,Rue de La Ringe 129 5550 VRESSE,92006,49.8373153,4.9695608,N
131,FN PDS YVOI DINAPHI,ZS YVOIR (Team: ANYVOI01A),Namen,Waals Gewest,Rue d'Evrehailles 24A 5530 YVOIR,92012,50.3222829,4.8812894,N
132,FO HVP AALS Zuid Oost,ZW AALST 1 (Team: AOAALS01A)_x000D_ZW AALST 2 (Team: AOAALS02A)_x000D_ZW AALST 3 (Team: AOAALS03A)_x000D_ZW AALST 4 (Team: AOAALS04A),Oost-Vlaanderen,Vlaams Gewest,Vrijheidsstraat 55 9300 AALST,46503,50.9395761,4.0335642,N
133,FO HVP AALT Meetjesland,ZW AALTER 1 (Team: AOAALT01A)_x000D_ZW AALTER 2 (Team: AOAALT02A),Oost-Vlaanderen,Vlaams Gewest,St Gerolflaan 12 A 9880 AALTER,41001,51.0864757,3.4469076,N
134,FO HVP ASSE Centrum,ZW ASSENEDE (Team: AOASSE01A),Oost-Vlaanderen,Vlaams Gewest,Molenstraat 54A 9960 ASSENEDE,40006,51.2242895,3.747029,N
135,FO HVP BEVE Waasland,PIT BEVEREN 1 (Team: POBEVE01A),Oost-Vlaanderen,Vlaams Gewest,Gravendreef 5 9120 BEVEREN,46001,51.2122088,4.259622,N
136,FO HVP BEVE [Melsele] Waasland,ZW BEVEREN 1 (Team: AOBEVE01A),Oost-Vlaanderen,Vlaams Gewest,Keetberglaan 7 (Haven 1098) 9120 MELSELE,46006,51.2422067,4.2757758,N
137,FO HVP DENM Oost,ZW DENDERMONDE 1 (Team: AODENM01A)_x000D_ZW DENDERMONDE 2 (Team: AODENM02A),Oost-Vlaanderen,Vlaams Gewest,Vlassenhout 17 9200 DENDERMONDE,45601,51.0328287,4.132515,N
138,FO HVP EEKL Meetjesland,ZW EEKLO 1 (Team: AOEEKL01A)_x000D_ZW EEKLO 2 (Team: AOEEKL02A),Oost-Vlaanderen,Vlaams Gewest,Gentsesteenweg 2 9900 EEKLO,41003,51.1797215,3.5756716,N
139,FO HVP GENT [Centrum] Centrum,PIT GENT 2 (Team: POGENT02A)_x000D_ZW GENT 1 (Team: AOGENT01A),Oost-Vlaanderen,Vlaams Gewest,Roggestraat 70 9000 GENT,40001,51.0685818,3.7107182,N
140,FO HVP GENT [Wondelgem] Centrum,ZW GENT 6 (Team: AOEVER01A),Oost-Vlaanderen,Vlaams Gewest,Elslo 185 9940 EVERGEM,40010,51.1225683,3.7343254,N
141,FO HVP GERA Zuid Oost,ZW GERAARDSBERGEN (Team: AOGERA01A),Oost-Vlaanderen,Vlaams Gewest,Zakkaai 33 9500 GERAARDSBERGEN,46504,50.7744735,3.8806202,N
142,FO HVP HERZ Vlaamse Ardennen,ZW HERZELE (Team: AOHERZ01A),Oost-Vlaanderen,Vlaams Gewest,Mergellaan 75 9550 HERZELE,45502,50.895623,3.875861,N
143,FO HVP KRUB Waasland,ZW KRUIBEKE (Team: AOKRUB01A),Oost-Vlaanderen,Vlaams Gewest,O. L. Vrouw Plein 19 9150 KRUIBEKE,46002,51.1710697,4.3128898,N
144,FO HVP KRUS Vlaamse Ardennen,ZW KRUISEM (Team: AOKRUS01A),Oost-Vlaanderen,Vlaams Gewest,Warandestraat 2 9770 KRUISHOUTEM,45501,50.9020353,3.5239706,N
145,FO HVP MALD Meetjesland,ZW MALDEGEM 1 (Team: AOMALD01A)_x000D_ZW MALDEGEM 2 (Team: AOMALD02A),Oost-Vlaanderen,Vlaams Gewest,Bloemdaelelaan 4 9990 MALDEGEM,41002,51.2115034,3.4523276,N
146,FO HVP MELL Centrum,ZW MELLE (Team: AOMELL01A),Oost-Vlaanderen,Vlaams Gewest,Brusselsesteenweg 148 9090 MELLE,40005,51.0119241,3.788643,N
147,FO HVP NINO Zuid Oost,ZW NINOVE 1 (Team: AONINO01A)_x000D_ZW NINOVE 2 (Team: AONINO02A),Oost-Vlaanderen,Vlaams Gewest,Desire De Bodtkaai 3 9400 NINOVE,46505,50.8333827,4.0258741,N
148,FO HVP OUDE Vlaamse Ardennen,ZW OUDENAARDE 2 (Team: AOOUDE02A)_x000D_ZW OUDENAARDE HVZ 1B (Team: AOOUDE01B),Oost-Vlaanderen,Vlaams Gewest,Bedrijvenpark De Coupure 21 9700 OUDENAARDE,42402,50.8519728,3.6093181,N
149,FO HVP SGIL Waasland,ZW ST GILLIS WAAS (Team: AOSGIL01A),Oost-Vlaanderen,Vlaams Gewest,Blokstraat 107 9170 SINT-GILLIS-WAAS,46003,51.2229416,4.1314694,N
150,FO HVP SNIK Waasland,ZW SINT NIKLAAS 1 (Team: AOSNIK01A)_x000D_ZW SINT NIKLAAS 2 (Team: AOSNIK02A),Oost-Vlaanderen,Vlaams Gewest,Nijverheidsstraat 33 9100 SINT-NIKLAAS,46005,51.1698779,4.1356144,N
151,FO HVP TEMS Waasland,ZW TEMSE (Team: AOTEMS01A),Oost-Vlaanderen,Vlaams Gewest,Kasteelstraat 16 9140 TEMSE,46004,51.1247009,4.2152415,N
152,FO HVP WACH Centrum,ZW WACHTEBEKE (Team: AOWACH01A),Oost-Vlaanderen,Vlaams Gewest,Walderdonk 103 9185 WACHTEBEKE,40007,51.1770867,3.8412857,N
153,FO HVP WICH Zuid Oost,ZW WICHELEN 1 (Team: AOWICH01A),Oost-Vlaanderen,Vlaams Gewest,Margote 116 9260 WICHELEN,46502,51.0043694,3.9788552,N
154,FO HVP ZELE Oost,ZW ZELE (Team: AOZELE01A),Oost-Vlaanderen,Vlaams Gewest,Poststraat 2 9240 ZELE,45201,51.0698766,4.0355777,N
155,FV HVP DILB West,ZW DILBEEK (Team: AVDILB01A),Vlaams-Brabant,Vlaams Gewest,De Heetveldelaan 6 1700 DILBEEK,24005,50.8484777,4.2636854,N
156,FV HVP GALM [Tollembeek] West,ZW TOLLEMBEEK (Team: AVGALM01A),Vlaams-Brabant,Vlaams Gewest,Hernestraat 51 1570 TOLLEMBEEK,24003,50.7389508,4.0143627,N
157,FV HVP HAAC Oost,ZW HAACHT (Team: AVHAAC01A),Vlaams-Brabant,Vlaams Gewest,Provinciesteenweg 7 3150 HAACHT,23002,50.9668905,4.6130102,N
158,FV HVP HALL West,ZW HALLE 2 (Team: AVHALL02A)_x000D_ZW HALLE 3 (Team: AVHALL03A),Vlaams-Brabant,Vlaams Gewest,Felix Roggemanskaai 2242 1500 HALLE,24001,50.7510345,4.2539965,N
159,FV HVP LAND Oost,ZW LANDEN 1 (Team: AVLAND01A)_x000D_ZW LANDEN 2 (Team: AVLAND02A),Vlaams-Brabant,Vlaams Gewest,Attenhovenstraat  47 3400 LANDEN,23004,50.7574788,5.081719,N
160,FV HVP LENN West,ZW LENNIK 1 (Team: AVLENN01A)_x000D_ZW LENNIK 2 (Team: AVLENN02A),Vlaams-Brabant,Vlaams Gewest,Assesteenweg 244 1750 LENNIK,24002,50.8345572,4.1436051,N
161,FV HVP LEUV Oost,ZW LEUVEN 3 (Team: AVLEUV03A)_x000D_ZW LEUVEN 4 (Team: AVLEUV04A),Vlaams-Brabant,Vlaams Gewest,Terbankstraat 20 3001 LEUVEN,23001,50.8774603,4.6658621,N
162,FV HVP LOND West,ZW LONDERZEEL 1 (Team: AVLOND01A)_x000D_ZW LONDERZEEL 2 (Team: AVLOND02A)_x000D_ZW LONDERZEEL 3 (Team: AVLOND03A),Vlaams-Brabant,Vlaams Gewest,Mechelsestraat  72 1840 LONDERZEEL,24008,51.0043083,4.3068028,N
163,FV HVP OVER Oost,ZW OVERIJSE 1 (Team: AVOVER01A)_x000D_ZW OVERIJSE 2 (Team: AVOVER02A)_x000D_ZW OVERIJSE 3 (Team: AVOVER03A),Vlaams-Brabant,Vlaams Gewest,Schavei  77 3090 OVERIJSE,23005,50.7770126,4.5270384,N
164,FV HVP TIEN Oost,ZW TIENEN 1 (Team: AVTIEN01A)_x000D_ZW TIENEN 2 (Team: AVTIEN02A),Vlaams-Brabant,Vlaams Gewest,Diestsesteenweg  360 3300 TIENEN,23003,50.8236483,4.9371776,N
165,FV HVP VILV West,ZW VILVOORDE 1 (Team: AVVILV01A)_x000D_ZW VILVOORDE 2 (Team: AVVILV02A)_x000D_ZW VILVOORDE 3 (Team: AVVILV03A),Vlaams-Brabant,Vlaams Gewest,Rondeweg  32 1800 VILVOORDE,24007,50.9251278,4.4234588,N
166,FV HVP ZAVE West,ZW ZAVENTEM 1 (Team: AVZAVE01A)_x000D_ZW ZAVENTEM 2 (Team: AVZAVE02A)_x000D_ZW ZAVENTEM 3 (Team: AVZAVE03A),Vlaams-Brabant,Vlaams Gewest,Hoge Wei 2 1930 ZAVENTEM,24006,50.8754995,4.500188,N
167,FW HVP BLAN 1,ZW BLANKENBERGE 1 (Team: AWBLAN01A)_x000D_ZW BLANKENBERGE 2 (Team: AWBLAN02A),West-Vlaanderen,Vlaams Gewest,Vredelaan 27 8370 BLANKENBERGE,30004,51.3103591,3.1224345,N
168,FW HVP BRUG [HP] 1,ZW BRUGGE HP 1 (Team: AWBRUG01A),West-Vlaanderen,Vlaams Gewest,Pathoekeweg 215 8000 BRUGGE,30005,51.2691894,3.2073533,N
169,FW HVP BRUG [VP] 1,ZW BRUGGE VP 4 (Team: AWBRUG04A)_x000D_ZW BRUGGE VP 5 (Team: AWBRUG05A),West-Vlaanderen,Vlaams Gewest,Walweinstraat 20 8000 BRUGGE,30006,51.2217871,3.2272175,N
170,FW HVP DIKS Westhoek,AMB COLLOC WESTHOEK 2 (Team: AWDIKS02A)_x000D_AMB DIKSMUIDE 1 (Team: AWDIKS01A),West-Vlaanderen,Vlaams Gewest,Heernisse 4 8600 DIKSMUIDE,35009,51.0291835,2.8584529,N
171,FW HVP GIST 1,ZW GISTEL 1 (Team: AWGIST01A)_x000D_ZW GISTEL 2 (Team: AWGIST02A),West-Vlaanderen,Vlaams Gewest,Neerhofstraat 16 B 8470 GISTEL,30007,51.158035,2.9691926,N
172,FW HVP HARE Fluvia,ZW HARELBEKE (Team: AWHARE01A),West-Vlaanderen,Vlaams Gewest,Tweebruggenstraat 2 8530 HARELBEKE,33007,50.8568661,3.3085433,N
173,FW HVP HEUV [NI] Westhoek,ZW NIEUWKERKE (Team: AWHEUV01A),West-Vlaanderen,Vlaams Gewest,Dranouterstraat 5 8950 HEUVELLAND,35001,50.7472089,2.8219631,N
174,FW HVP HOUT Westhoek,ZW MERKEM (Team: AWHOUT01A),West-Vlaanderen,Vlaams Gewest,Kouterstraat 26 8650 HOUTHULST,35004,50.952499,2.8516999,N
175,FW HVP IEPE Westhoek,ZW IEPER 2 BW (Team: AWIEPE02A),West-Vlaanderen,Vlaams Gewest,Minneplein 1A 8900 IEPER,35010,50.8527201,2.8772348,N
176,FW HVP IZEG Midwest,ZW IZEGEM 1 (Team: AWIZEG01A),West-Vlaanderen,Vlaams Gewest,Dirk Martenslaan 15 8870 IZEGEM,31002,50.9183685,3.2187142,N
177,FW HVP JABB 1,ZW JABBEKE (Team: AWJABB01A),West-Vlaanderen,Vlaams Gewest,Vlamingveld 40 8490 JABEKKE,30010,51.1816879,3.1074547,N
178,FW HVP KNOK 1,ZW KNOKKE 1 (Team: AWKNOK01A)_x000D_ZW KNOKKE 2 (Team: AWKNOK02A)_x000D_ZW KNOKKE 3 (Team: AWKNOK03A),West-Vlaanderen,Vlaams Gewest,Brandweerstraat 7 8300 KNOKKE-HEIST,30001,51.3397081,3.2868892,N
179,FW HVP KOKS Westhoek,ZW KOKSIJDE (Team: AWKOKS01A),West-Vlaanderen,Vlaams Gewest,Zeelaan 37 8670 KOKSIJDE,35011,51.1058531,2.6493834,N
180,FW HVP KORR Fluvia,ZW KORTRIJK 1 (Team: AWKORR01A)_x000D_ZW KORTRIJK 2 (Team: AWKORR02A)_x000D_ZW KORTRIJK 3 (Team: AWKORR03A),West-Vlaanderen,Vlaams Gewest,Doorniksesteenweg 214 A 8500 KORTRIJK,33004,50.8108953,3.2756054,N
181,FW HVP LEDE Fluvia,ZW LEDEGEM (Team: AWLEDE01A),West-Vlaanderen,Vlaams Gewest,Kloosterstraat 4 8880 LEDEGEM,33002,50.8771729,3.1759393,N
182,FW HVP LICH Midwest,ZW LICHTERVELDE (Team: AWLICH01A),West-Vlaanderen,Vlaams Gewest,Beverenstraat 16 8810 LICHTERVELDE,31004,51.0254614,3.1414086,N
183,FW HVP MENE Fluvia,ZW MENEN (Team: AWMENE01A),West-Vlaanderen,Vlaams Gewest,Krommebeekstraat 34/A 8930 MENEN,33005,50.8136468,3.1265431,N
184,FW HVP MIDD 1,ZW MIDDELKERKE (Team: AWMIDD01A),West-Vlaanderen,Vlaams Gewest,Kleine kasteelstraat  3 8430 MIDDELKERKE,30011,51.1833126,2.8238932,N
185,FW HVP NIEU Westhoek,ZW LICHTERVELDE (Team: AWNIEU01A),West-Vlaanderen,Vlaams Gewest,Gasstraat 37 8620 NIEUWPOORT,35008,51.1282901,2.7573816,N
186,FW HVP OOSE 1,ZW OOSTENDE 1 (Team: AWOOSE01A)_x000D_ZW OOSTENDE 2 (Team: AWOOSE02A)_x000D_ZW OOSTENDE 3 (Team: AWOOSE03A)_x000D_ZW OOSTENDE 4 (Team: AWOOSE04A),West-Vlaanderen,Vlaams Gewest,Velodroomstraat 13 8400 OOSTENDE,30008,51.2246918,2.9061035,N
187,FW HVP OOSK 1,ZW OOSTKAMP 1 (Team: AWOOSK01A),West-Vlaanderen,Vlaams Gewest,Siemenslaan 8 8020 OOSTKAMP,30002,51.1480531,3.238243,N
188,FW HVP OOSK [Ruddervoorde] 1,ZW RUDDERVOORDE 2 (Team: AWOOSK02A),West-Vlaanderen,Vlaams Gewest,Hofstraat 26 8020 RUDDERVOORDE,30003,51.0947818,3.2055415,N
189,FW HVP PANN Westhoek,ZW DE PANNE (Team: AWPANN01A),West-Vlaanderen,Vlaams Gewest,Loskaai 14 8660 DE PANNE,35003,51.0948698,2.5835932,N
190,FW HVP POPE Westhoek,ZW POPERINGE 1 (Team: AWPOPE01A),West-Vlaanderen,Vlaams Gewest,Doornstraat 45 8970 POPERINGE,35006,50.8593871,2.7262218,N
191,FW HVP POPE [Roesbrugge] Westhoek,ZW ROESBRUGGE 2 (Team: AWPOPE02A),West-Vlaanderen,Vlaams Gewest,Haringestraat 26 A 8972 ROESBRUGGE,35005,50.9166912,2.6257251,N
192,FW HVP ROES Midwest,ZW ROESELARE 1 (Team: AWROES01A)_x000D_ZW ROESELARE 2 (Team: AWROES02A)_x000D_ZW ROESELARE 3 (Team: AWROES03A),West-Vlaanderen,Vlaams Gewest,Koning Albert 1 Laan 4 8800 ROESELARE,31001,50.9498725,3.1292766,N
193,FW HVP TORH 1,ZW TORHOUT 1 (Team: AWTORH01A)_x000D_ZW TORHOUT 2 (Team: AWTORH02A),West-Vlaanderen,Vlaams Gewest,Aartrijksestraat 13 8820 TORHOUT,30009,51.0702509,3.1009085,N
194,FW HVP WERV Westhoek,ZW WERVIK (Team: AWWERV01A),West-Vlaanderen,Vlaams Gewest,Gasstraat 2 8940 WERVIK,35002,50.7815035,3.0441079,N
195,FW HVP WEVE Fluvia,ZW WEVELGEM (Team: AWWEVE01A),West-Vlaanderen,Vlaams Gewest,Nieuwe Markt 3 8560 WEVELGEM,33003,50.8125511,3.1850362,N
196,FX PDS ARLO Luxembourg,ZS.ARLON 1 (Team: AXARLO01A)_x000D_ZS.ARLON 2 (Team: AXARLO02A)_x000D_ZS.ARLON 3 (Team: AXARLO03A),Luxemburg,Waals Gewest,Rue De Redange 55 6700 ARLON,80002,49.6907796,5.8205844,N
197,FX PDS AUBA Luxembourg,ZS.AUBANGE 1 (Team: AXAUBA01A)_x000D_ZS.AUBANGE 2 (Team: AXAUBA02A),Luxemburg,Waals Gewest,Rue Des Metallurgistes 9 6791 ATHUS,80014,49.5646195,5.8245395,N
198,FX PDS BAST Luxembourg,ZS.BASTOGNE 1 (Team: AXBAST01A)_x000D_ZS.BASTOGNE 2 (Team: AXBAST02A),Luxemburg,Waals Gewest,Rue du Fortin 22 6600 BASTOGNE,80017,49.9921075,5.7059044,N
199,FX PDS BERR Luxembourg,ZS.BERTRIX 1 (Team: AXBERR01A),Luxemburg,Waals Gewest,Rue De Blezy 34 6880 BERTRIX,80010,49.856,5.2651139,N
200,FX PDS BOUI Luxembourg,ZS.BOUILLON (Team: AXBOUI01A),Luxemburg,Waals Gewest,Rue Des 4 Moineaux 23B 6832 CURFOZ,80008,49.811984,5.079105,N
201,FX PDS EREZ Luxembourg,ZS.EREZEE 1 (Team: AXEREZ01A)_x000D_ZS.EREZEE 2 (Team: AXEREZ02A),Luxemburg,Waals Gewest,Rue Des Combattants 27 6997 EREZEE,80006,50.2913872,5.5537595,N
202,FX PDS ETAL Luxembourg,ZS.ETALLE 1 (Team: AXETAL01A)_x000D_ZS.ETALLE 2 (Team: AXETAL02A),Luxemburg,Waals Gewest,Rue Saint-Antoine 193 6740 ETALLE,80001,49.6763545,5.5978765,N
203,FX PDS FLOR Luxembourg,ZS.FLORENV (Team: AXFLOR01A),Luxemburg,Waals Gewest,Rue Du Clument 6820 FLORENVILLE,80004,49.6978938,5.3113728,N
204,FX PDS HOUF Luxembourg,ZS.HOUFFAL (Team: AXHOUF01A),Luxemburg,Waals Gewest,Rue De Laroche 49 6660 HOUFFALIZE,80011,50.1285486,5.78569,N
205,FX PDS NEUF Luxembourg,ZS.NEUFCH 1 (Team: AXNEUF01A),Luxemburg,Waals Gewest,Chaussee D'Arlon 50 6840 NEUFCHATEAU,80009,49.8404341,5.4349469,N
206,FX PDS ROCH Luxembourg,ZS.LAROCHE 1 (Team: AXROCH01A),Luxemburg,Waals Gewest,Rue du Chalet 27 6980 LA-ROCHE-EN-ARDENNE,80016,50.1800993,5.5747724,N
207,FX PDS VIEL Luxembourg,ZS.VIELSALM 1 (Team: AXVIEL01A)_x000D_ZS.VIELSALM 2 (Team: AXVIEL02A),Luxemburg,Waals Gewest,Rue De La Clinique 1Z 6690 VIELSAM,80007,50.2826398,5.9207515,N
208,FX PDS VIRT Luxembourg,ZS.VIRTON 1 (Team: AXVIRT01A)_x000D_ZS.VIRTON 2 (Team: AXVIRT02A),Luxemburg,Waals Gewest,Rue Du Moulin 20 6760 VIRTON,80013,49.5649592,5.5346367,N
209,HA U ANTW AZ Monica,ZW ANTWERPEN 8 (Team: AAANTW08A),Antwerpen,Vlaams Gewest,Florent Pauwelslei 1 2100 DEURNE,15201,51.2063667,4.4702018,N
210,HA U ANTW Jan Palfijn,ZW ANTWERPEN 10 (Team: AAANTW10A),Antwerpen,Vlaams Gewest,Lange Bremstraat 70 2170 MERKSEM,11701,51.2588916,4.4513523,N
211,HA U ANTW Middelheim,ZW ANTWERPEN 5 (Team: AAANTW05A),Antwerpen,Vlaams Gewest,Kruispunt Floralienlaan/Elisabethlaan 2020 ANTWERPEN,11703,51.1826931,4.4237404,N
212,HA U ANTW St Vincentius,ZW ANTWERPEN 6 (Team: AAANTW06A),Antwerpen,Vlaams Gewest,Sint Vincentiusstraat 20 2018 ANTWERPEN,16601,51.2059492,4.412103,N
213,HA U ANTW Stuivenberg,ZW ANTWERPEN 4 (Team: AAANTW04A),Antwerpen,Vlaams Gewest,Lange Beeldekensstraat 267 2060 ANTWERPEN,11702,51.222403,4.4351584,N
214,HA UR BONH Imelda,ZW BONHEIDEN 1 (Team: AABONH01A),Antwerpen,Vlaams Gewest,Imeldalaan 9 2820 BONHEIDEN,10301,51.0173887,4.5602291,N
215,HA UR BORN AZ Rivierenland,ZW BORNEM (Team: AABORN02A),Antwerpen,Vlaams Gewest,Kasteelstraat 23 2880 BORNEM,17004,51.1001657,4.2320056,N
216,HA UR BRAS AZ Klina,ZW BRASSCHAAT 1 (Team: AABRAS01A),Antwerpen,Vlaams Gewest,Augustijnslei 100 2930 BRASSCHAAT,16401,51.2997041,4.4890033,N
217,HA UR BRAS [De Mick] AZ Klina,ZW BRASSCHAAT 2 (Team: AABRAS02A),Antwerpen,Vlaams Gewest,Papestraat 30 2930 BRASSCHAAT,16402,51.308509,4.5457484,N
218,HA UR EDEG UZ Antwerpen,ZW EDEGEM 1 (Team: AAEDEG01A)_x000D_ZW EDEGEM 2 (Team: AAEDEG02A),Antwerpen,Vlaams Gewest,Wilrijkstraat 10 2650 EDEGEM,16501,51.1577655,4.4108501,N
219,HA UR HERA AZ,ZW HERENTALS 2 (Team: AAHERA02A),Antwerpen,Vlaams Gewest,Nederrij 133 2200 HERENTALS,16801,51.1846342,4.8356473,N
220,HA UR MALL AZ St Jozef,ZW MALLE 1 (Team: AAMALL01A),Antwerpen,Vlaams Gewest,Oude Liersebaan 4 2390 MALLE,10402,51.2742932,4.6444488,N
221,HA UR MECH AZ St Maarten,ZW MECHELEN 1 (Team: AAMECH01A)_x000D_ZW MECHELEN 2 (Team: AAMECH02A),Antwerpen,Vlaams Gewest,Liersesteenweg 435 2800 MECHELEN,10403,51.0487637,4.4793302,N
222,HB UR BRUX CHU St Pierre,AMB HSP 14 (Team: ABBRUX14A)_x000D_AMB HSP 6 (Team: ABBRUX06A)_x000D_AMB HSP 7 (Team: ABBRUX07A)_x000D_AMB HSP 8 (Team: ABBRUX08A),,Brussels Hoofdstedelijk Gewest,Rue Haute 290 1000 BRUXELLES,24102,50.8357176,4.3475625,N
223,HB UR BRUX CU St Luc,AMB COVID UCL (Team: ABBRUX15A)_x000D_AMB UCL 1 (Team: ABWOLL01A)_x000D_AMB UCL 2 (Team: ABWOLL02A),,Brussels Hoofdstedelijk Gewest,Avenue Hyppocrate 92 1200 WOLUWE,24105,50.8519005,4.4603541,N
224,HB UR BRUX Europe Elisabeth,AMB ST ELISABETH 9 (Team: ABBRUX09A),,Brussels Hoofdstedelijk Gewest,Avenue De Fré 206 1180 BRUXELLES,24106,50.805155,4.3685449,N
225,HB UR BRUX Europe Michel,AMB MICHEL 1 (Team: ABETTE01A)_x000D_AMB MICHEL 2 (Team: ABETTE02A),,Brussels Hoofdstedelijk Gewest,Rue Charles Degroux 75 1040 ETTERBEEK,24114,50.8423838,4.3993125,N
226,HB UR BRUX UZ,AMB VUB 1 (Team: ABJETT01A)_x000D_AMB VUB 2 (Team: ABJETT02A)_x000D_AMB VUB 3 (Team: ABJETT03A),,Brussels Hoofdstedelijk Gewest,Avenue De L'Arbre Ballon 251 1090 JETTE,24109,50.8907283,4.3080703,N
227,HH UR LOVE IMTR,SAPG 1 (Team: AHGERP02A),Henegouwen,Waals Gewest,Chaussée de Philippeville 33 6280 LOVERVAL,50201,50.3733833,4.4674644,N
228,HH UR MONI CHU Andre Vesale,(Team: MHMILI101)_x000D_(Team: MHMILI102)_x000D_(Team: MHMILI103)_x000D_AMB VÉSALE 7 (Team: AHCHAR07A),Henegouwen,Waals Gewest,Route De Gozee 706 6110 MONTIGNIES LE TILLEUL,55701,50.3619357,4.3642107,N
229,HL UR HASS Virga Jesse,ZW HASSELT JESSA 3 (Team: ALHASS03A),Limburg,Vlaams Gewest,Stadsomvaart 11 3500 HASSELT,71401,50.9259632,5.3420969,N
230,HL UR STRU St Trudo,ZW ST-TRUIDEN (Team: ALSTRU01A),Limburg,Vlaams Gewest,Diestersteenweg  100 3800 SINT TRUIDEN,73008,50.8234022,5.1860706,N
231,HO UR GENT AZ Jan Palfijn,PIT GENT 2 (Team: POGENT02C),Oost-Vlaanderen,Vlaams Gewest,Watersportlaan 5 9000 GENT,40009,51.0492296,3.7002086,N
232,HO UR GENT AZ Maria Middelares,PIT MERELBEKE (Team: POMERE01B),Oost-Vlaanderen,Vlaams Gewest,Buitenring-Sint-Denijs 30 9000 GENT,40012,51.0242346,3.7026408,N
233,HO UR GENT AZ St Lucas,PIT GENT 2 (Team: POGENT02B),Oost-Vlaanderen,Vlaams Gewest,Groenebriel 1 9000 GENT,40008,51.0618537,3.7215097,N
234,HO UR GENT UZ,PIT GENT 3 (Team: POGENT03A),Oost-Vlaanderen,Vlaams Gewest,Corneel Heymanslaan 9000 GENT,43601,51.0237443,3.7313248,N
235,HO UR LOKE AZ,ZW LOKEREN 1 (Team: AOLOKE01A),Oost-Vlaanderen,Vlaams Gewest,Lepelstraat 4 9160 LOKEREN,44001,51.1012384,3.9998472,N
236,HO UR OUDE AZ,ZW OUDENAARDE 1 (Team: AOOUDE01A),Oost-Vlaanderen,Vlaams Gewest,Minderbroedersstraat 3 9700 OUDENAARDE,42401,50.8426069,3.6014671,N
237,HO UR RONS AZ Glorieux,ZW RONSE (Team: AORONS01A),Oost-Vlaanderen,Vlaams Gewest,Glorieuxlaan 55 9600 RONSE,44501,50.7461817,3.5997497,N
238,HO UR ZOTT AZ St Elisabeth,ZW ZOTTEGEM (Team: AOZOTT01A),Oost-Vlaanderen,Vlaams Gewest,Godveerdegemstraat 69 9620 ZOTTEGEM,40701,50.8643014,3.8165937,N
239,HV UR DIES AZ,ZW DIEST (Team: AVDIES01A),Vlaams-Brabant,Vlaams Gewest,Statiestraat 65 3290 DIEST,22401,50.988508,5.0509244,N
240,HV UR LEUV RZ HEILIG HART,ZW LEUVEN VK 1 (Team: AVLEUV01A),Vlaams-Brabant,Vlaams Gewest,Naamsestraat 105 3000 LEUVEN,26301,50.8723536,4.6998331,N
241,HV UR LEUV UZ Gasthuisberg,PIT TIH GHB (Team: PVLEUV04A),Vlaams-Brabant,Vlaams Gewest,Herestraat  49 3001 LEUVEN,28801,50.8780791,4.6731993,N
242,HW UR IEPE Jan Yperman,AMB IEPER 3 ZH (Team: AWIEPE03A)_x000D_ZW IEPER 1 ZH (Team: PWIEPE01A),West-Vlaanderen,Vlaams Gewest,Pilkemseweg 80 8900 IEPER,37101,50.8639077,2.894177,N
243,HW UR IZEG St Jozefs,ZW IZEGEM 2 (Team: AWIZEG02A),West-Vlaanderen,Vlaams Gewest,Roeselaarsestraat 47 8870 IZEGEM,31003,50.9185774,3.211183,N
244,HW UR VEUR AZ West,ZW VEURNE (Team: PWVEUR01A),West-Vlaanderen,Vlaams Gewest,Iepersesteenweg 100 8630 VEURNE,35007,51.0621679,2.6685368,N
245,HW UR WARE OLV Van Lourdes,ZW P WAREGEM (Team: PWWARE01A),West-Vlaanderen,Vlaams Gewest,Vijfseweg 150 8790 WAREGEM,30701,50.8999474,3.4182715,N
246,HX UR BAST Vivalia St Therese,PIT TIH LIBRAMONT (Bastogne) (Team: PXBAST01A),Luxemburg,Waals Gewest,Chaussée d'Houffalize 1 6600 BASTOGNE,87003,50.0124281,5.7224414,N
247,HX UR LIBR Vivalia CH Ardenne | PIT,PIT.LIBRAMONT 1 (Team: PXLIBR01A),Luxemburg,Waals Gewest,Avenue d'Houffalize 35 6800 LIBRAMONT,87002,49.9251785,5.3814012,N
248,HX UR MARC Vivalia Princesse Paola,PIT TIH LIBRAMONT (Marche en Famenne) (Team: PXMARC01A),Luxemburg,Waals Gewest,Rue du Vivier 28 6900 MARCHE EN FAMENNE,87001,50.2285032,5.3232379,N
249,LIEGE ZONE 2 INTERCOMMUNALE D'INCENDIE DE LIEGE ET ENVIRONS - SERVICE REGIONAL D'INCENDIE (LIEGE ZONE 2 IILE-SRI),(Team: AGGRAC01A),Luik,Waals Gewest,Rue Sainte Anne 30 4460 Grace-Hollogne,61005,50.6454281,5.4775191,N
250,ML HVP PELT Noord Limburg,ZW PELT (Team: ALPELT01A),Limburg,Vlaams Gewest,Heuvelerweg 24 3910 PELT,70004,51.2365534,5.4770805,N
251,BF JODO SC Person Aid,AMB JODOIGNE 1 (Team: AFJODO01A)_x000D_AMB JODOIGNE 2 (Team: AFJODO02A),Waals-Brabant,Waals Gewest,Rue De L'Avenir 5 1370 JODOIGNE,25301,50.7170595,4.8567275,Y
252,BF SART BHN AMBU,AMB SART-DAMES-AVELINES 1 (Team: AFSART01A)_x000D_AMB SART-DAMES-AVELINES 2 (Team: AFSART02A),Waals-Brabant,Waals Gewest,Rue Gustave Linet 46 1495 SART DAMES AVELINES,24601,50.5641805,4.4907038,Y
253,BG BULL Croix Rouge,CR.BUTGEN 1 (Team: AGBULL01A)_x000D_CR.BUTGEN 2 (Team: AGBULL02A),Luik,Waals Gewest,Malmedyerstrasse 5 4760 BÜLLINGEN,3666,50.4055547,6.2516179,Y
254,BG LIEG Courtois,PR.COURT 1 (Team: AGLIEG01A)_x000D_PR.COURT 2 (Team: AGLIEG02A)_x000D_PR.COURT 3 (Team: AGLIEG03A),Luik,Waals Gewest,Rue Belvaux 51 4030 GRIVEGNEE,61101,50.6204355,5.6013855,Y
255,FA HVP GEEL Kempen,ZW GEEL 1 (Team: AAGEEL01A)_x000D_ZW GEEL 2 (Team: AAGEEL02A)_x000D_ZW GEEL 3 (Team: AAGEEL03A)_x000D_ZW GEEL 4 (Team: AAGEEL04A),Antwerpen,Vlaams Gewest,Stelenseweg 92 2440 GEEL,16003,51.1521392,4.9845492,Y
256,FB PDS BRUX [Caserne Héliport] SIAMU,AMB HELI 1 (Team: ABBRUX01A)_x000D_AMB HELI 10 (Team: ABBRUX20A)_x000D_AMB HELI 11 (Team: ABBRUX21A)_x000D_AMB HELI 16 (Team: ABBRUX16A)_x000D_AMB HELI 2 (Team: ABBRUX02A)_x000D_AMB HELI 3 (Team: ABBRUX03A)_x000D_AMB HELI 4 (Team: ABBRUX04A)_x000D_AMB HELI 5 (Team: ABBRUX05A)_x000D_AMB HELI 7 (Team: ABBRUX17A)_x000D_AMB HELI 8 (Team: ABBRUX18A)_x000D_AMB HELI 9 (Team: ABBRUX19A),,Brussels Hoofdstedelijk Gewest,Avenue De L' Héliport 11-15 1000 BRUXELLES,24101,50.8594819,4.3521899,Y
257,FF PDS BRAL Brabant Wallon,AMB BRAINE-L'ALLEUD 1 (Team: AFBRAL01A)_x000D_AMB BRAINE-L'ALLEUD 2 (Team: AFBRAL02A)_x000D_AMB BRAINE-L'ALLEUD 3 (Team: AFBRAL03A),Waals-Brabant,Waals Gewest,Chaussee De Mont St Jean 120 1420 BRAINE L ALLEUD,20003,50.6860068,4.395409,Y
258,FF PDS TUBI Brabant Wallon,AMB TUBIZE 1 (Team: AFTUBI01A)_x000D_AMB TUBIZE 2 (Team: AFTUBI02A),Waals-Brabant,Waals Gewest,Rue Ferrer 91 1480 TUBIZE,20004,50.6901666,4.1973583,Y
259,FF PDS WAVR Brabant Wallon,AMB WAVRE 1 (Team: AFWAVR01A)_x000D_AMB WAVRE 2 (Team: AFWAVR02A)_x000D_AMB WAVRE 3 (Team: AFWAVR03A),Waals-Brabant,Waals Gewest,Chaussee De Namur 115 1301 WAVRE,20002,50.6990584,4.6148261,Y
260,FG PDS AYWA Warche Amblève Lienne,ZS.AYWAIL 1 (Team: AGAYWA01A)_x000D_ZS.AYWAIL 2 (Team: AGAYWA02A)_x000D_ZS.AYWAIL 3 (Team: AGAYWA03A),Luik,Waals Gewest,Playe 50 4920 AYWAILLE,65001,50.4909798,5.7145851,Y
261,FG PDS HAMO HEMECO,ZS.HAMOIR (Team: AGHAMO01A)_x000D_ZS.HAMOIR 2 (Team: AGHAMO02A),Luik,Waals Gewest,Rue De Tohogne 14 4180 HAMOIR,62002,50.4255161,5.5284297,Y
262,FG PDS HUY_ HEMECO,ZS HUY 1 (Team: AGHUY_01A)_x000D_ZS HUY 2 (Team: AGHUY_02A)_x000D_ZS HUY 3 (Team: AGHUY_03A),Luik,Waals Gewest,Rue De La Mairie 30 4500 HUY,62001,50.5308662,5.2672369,Y
263,FG PDS LIEG [Battice] Vesdre Hoëgne Plateau,ZS.BATTICE 2 (Team: AGHERV02A),Luik,Waals Gewest,Place Du Marche 1 4651 BATTICE,64002,50.6478461,5.8213157,Y
264,FG PDS STAV Warche Amblève Lienne,ZS.STAVEL1 (Team: AGSTAV01A)_x000D_ZS.STAVEL2 (Team: AGSTAV02A),Luik,Waals Gewest,Route De Malmedy 17 4970 STAVELOT,65002,50.4012961,5.9453535,Y
265,FG PDS VERV Vesdre Hoëgne Plateau,ZS.VERV 1 (Team: AGVERV01A)_x000D_ZS.VERV 2 (Team: AGVERV02A)_x000D_ZS.VERV 3 (Team: AGVERV03A)_x000D_ZS.VERV 4 (Team: AGVERV04A),Luik,Waals Gewest,Rue Simon Lobet 36 4800 VERVIERS,64001,50.5858941,5.8703653,Y
266,FH PDS CHAR [Marcinelle] Hainaut Est,AMB CHARLEROI 1 (Team: AHCHAR01A)_x000D_AMB CHARLEROI 2 (Team: AHCHAR02A)_x000D_AMB CHARLEROI 3 (Team: AHCHAR03A)_x000D_AMB COVID Charleroi (Team: AHCHAR11A),Henegouwen,Waals Gewest,Rue de la Tombe 112 6001 MARCINELLE,52001,50.3906081,4.4173694,Y
267,FH PDS CHIE Hainaut Centre,AMB CHIÈVRES 1 (Team: AHLENS01A)_x000D_AMB CHIÈVRES Bariatrique 2 (Team: AHLENS02A),Henegouwen,Waals Gewest,Rue de la Croix 112 7870 BAUFFE,53009,50.5737411,3.8586497,Y
268,FL HVP MAAE Oost Limburg,ZW MAASEIK 1 (Team: ALMAAE01A)_x000D_ZW MAASEIK 2 (Team: ALMAAE02A),Limburg,Vlaams Gewest,"Gremelsloweg, 7A 3680 MAASEIK",71002,51.1050276,5.7503557,Y
269,FN PDS DINA DINAPHI,ZS DINANT 1 (Team: ANDINA01A)_x000D_ZS DINANT 2 (Team: ANDINA02A)_x000D_ZS DINANT 3 (Team: ANDINA03A),Namen,Waals Gewest,Route de Philippeville 236 5500 DINANT,92007,50.2532753,4.8979837,Y
270,FO HVP WETT Zuid Oost,ZW WETTEREN 1 (Team: AOWETT01A)_x000D_ZW WETTEREN 2 (Team: AOWETT02A),Oost-Vlaanderen,Vlaams Gewest,Zuiderdijk 1 9230 WETTEREN,46501,51.0076947,3.8799267,Y
271,FV HVP ASSE West,ZW ASSE (Team: AVASSE01A)_x000D_ZW ASSE 2 (Team: AVASSE02A),Vlaams-Brabant,Vlaams Gewest,Asphaltcosite 110 1730 ASSE,24004,50.9079997,4.2098889,Y
272,FX PDS MARC Luxembourg,ZS.MARCHE 1 (Team: AXMARC01A)_x000D_ZS.MARCHE 2 (Team: AXMARC02A)_x000D_ZS.MARCHE 3 (Team: AXMARC03A),Luxemburg,Waals Gewest,Parc Industriel 12 6900 MARCHE,80012,50.22138,5.3303017,Y
273,FX PDS PALI Luxembourg,ZS.PALISEUL 1 (Team: AXPALI01A)_x000D_ZS.PALISEUL 2 (Team: AXPALI02A),Luxemburg,Waals Gewest,Rue De La Station 52 6850 PALISEUL,80005,49.9000041,5.1266042,Y
274,FX PDS SHUB Luxembourg,ZS.STHUBERT 1 (Team: AXSHUB01A)_x000D_ZS.STHUBERT 2 (Team: AXSHUB02A),Luxemburg,Waals Gewest,Route De Poix 23 6870 SAINT-HUBERT,80003,50.0256325,5.3596412,Y
275,HG UR HERS Andre Renard,AMB OCC HERSTAL (Team: AGTIHARE1),Luik,Waals Gewest,Rue André Renard 1 4040 HERSTAL,63601,50.6748034,5.6336647,Y
276,HG UR LIEG CHR Citadelle,AMB LIEGE CHR (Team: AGLIEG09A)_x000D_AMB OCC CHR DE LA CITADELLE (Team: AGTIHCHR1),Luik,Waals Gewest,Allée De L'Absent 1 4000 LIEGE,67201,50.6528879,5.5783562,Y
277,HG UR LIEG CHU Notre Dame Bruyeres,(Team: AGTIHCHU1),Luik,Waals Gewest,Rue de Gaillarmont 600 4030 LIEGE,63602,50.6225226,5.6363809,Y
278,HULPVERLENINGSZONE ZUIDWEST LIMBURG,ZW ST-TRUIDEN 2 (Team: ALSTRU02A),Limburg,Vlaams Gewest,Hasseltsesteenweg 80 3500 HASSELT,73007,50.8282977,5.2008548,Y
